{
  "hutong": {
    "id": "hutong-ymz",
    "name": "杨梅竹斜街"
  },
  "pois": [
    {
      "id": "poi-park-001",
      "name": "厂甸甲9号院-地上停车场",
      "type": "停车场",
      "category": "地上停车场",
      "location": {
        "city": "北京",
        "district": "西城区",
        "address": "厂甸甲9号"
      },
      "distanceToHutong": {
        "description": "距目标点288m"
      },
      "parkingInfo": {
        "totalSpaces": 96,
        "type": "智能停车"
      },
      "media": {
        "cover": "assets/img/poi/poi-park-001/cover.jpg"
      },
      "keywords": [
        "厂甸甲9号院",
        "地上停车场",
        "西城区",
        "智能停车"
      ]
    },
    {
      "id": "poi-park-002",
      "name": "厂甸市场-门前停车场",
      "type": "停车场",
      "category": "门前停车场",
      "location": {
        "city": "北京",
        "district": "西城区",
        "address": "南新华街58号"
      },
      "distanceToHutong": {
        "description": "距目标点383m"
      },
      "parkingInfo": {
        "totalSpaces": 32,
        "type": "智能停车"
      },
      "media": {
        "cover": "assets/img/poi/poi-park-002/cover.jpg"
      },
      "keywords": [
        "厂甸市场",
        "门前停车场",
        "南新华街"
      ]
    },
    {
      "id": "poi-park-003",
      "name": "琉璃厂古文化街-门前停车场",
      "type": "停车场",
      "category": "门前停车场",
      "rating": null,
      "reviewCount": 1,
      "location": {
        "city": "北京",
        "district": "西城区",
        "address": "南新华街琉璃厂古文化街"
      },
      "distanceToHutong": {
        "description": "距目标点382m"
      },
      "parkingInfo": {
        "totalSpaces": 54,
        "type": "智能停车"
      },
      "media": {
        "cover": "assets/img/poi/poi-park-003/cover.jpg"
      },
      "keywords": [
        "琉璃厂",
        "古文化街",
        "门前停车场",
        "南新华街"
      ]
    },
    {
      "id": "poi-park-004",
      "name": "远东饭店(铁树斜街店)-地上停车场",
      "type": "停车场",
      "category": "地上停车场",
      "reviewCount": 1,
      "location": {
        "city": "北京",
        "district": "西城区",
        "address": "铁树斜街90号"
      },
      "distanceToHutong": {
        "description": "距目标点383m"
      },
      "parkingInfo": {
        "totalSpaces": 31,
        "type": "智能停车"
      },
      "media": {
        "cover": "assets/img/poi/poi-park-004/cover.jpg"
      },
      "keywords": [
        "远东饭店",
        "铁树斜街",
        "地上停车场",
        "智能停车"
      ]
    }
  ]
}